[
  {
    "station": "103rd St - Central Park",
    "uniqueBacteria": 66,
    "samplesTaken": 4,
    "latitude": 40.7854,
    "longitude": -73.9576,
    "bacteriaDNA": 56.87
  },
  {
    "station": "110th St - Central Park North",
    "uniqueBacteria": 50,
    "samplesTaken": 2,
    "latitude": 40.7990,
    "longitude": -73.9518,
    "bacteriaDNA": 59.39
  },
  {
    "station": "116th St - Columbia University",
    "uniqueBacteria": 30,
    "samplesTaken": 2,
    "latitude": 40.8075,
    "longitude": -73.9645,
    "bacteriaDNA": 59.73
  },
  {
    "station": "World Trade Center",
    "uniqueBacteria": 43,
    "samplesTaken": 3,
    "latitude": 40.7126,
    "longitude": -74.0099,
    "bacteriaDNA": 67.61
  },
  
    {
      "station": "167th St - Concourse",
      "uniqueBacteria": 53,
      "samplesTaken": 2,
      "latitude": 40.8340,
      "longitude": -73.9184,
      "bacteriaDNA": 44.66
    },
    {
      "station": "168th St - Washington Heights",
      "uniqueBacteria": 108,
      "samplesTaken": 5,
      "latitude": 40.8407,
      "longitude": -73.9398,
      "bacteriaDNA": 36.99
    },
    {
      "station": "169th St - Jamaica",
      "uniqueBacteria": 54,
      "samplesTaken": 2,
      "latitude": 40.7105,
      "longitude": -73.7937,
      "bacteriaDNA": 38.96
    },
    {
      "station": "170th St - Claremont Village",
      "uniqueBacteria": 75,
      "samplesTaken": 2,
      "latitude": 40.8393,
      "longitude": -73.9134,
      "bacteriaDNA": 24.92
    },
    {
      "station": "174-175th Sts - Mount Hope",
      "uniqueBacteria": 56,
      "samplesTaken": 2,
      "latitude": 40.8475,
      "longitude": -73.9092,
      "bacteriaDNA": 36.29
    },
    {
      "station": "174th St - East Morrisania",
      "uniqueBacteria": 35,
      "samplesTaken": 2,
      "latitude": 40.8373,
      "longitude": -73.8877,
      "bacteriaDNA": 37.29
    },
    {
      "station": "175th St - Washington Heights",
      "uniqueBacteria": 35,
      "samplesTaken": 3,
      "latitude": 40.8471,
      "longitude": -73.9396,
      "bacteriaDNA": 44.60
    },
    {
        "station": "145th St - Harlem",
        "uniqueBacteria": 36,
        "samplesTaken": 2,
        "latitude": 40.8248,
        "longitude": -73.9442,
        "bacteriaDNA": 40.25
      },
      {
        "station": "South Ferry",
        "uniqueBacteria": 26,
        "samplesTaken": 2,
        "latitude": 40.7018,
        "longitude": -74.0130,
        "bacteriaDNA": 47.56
      }
]
  